{
"type": "FeatureCollection",
"name": "bajajs_epsg4326",
"crs": { "type": "name", "properties": { "name": "urn:ogc:def:crs:OGC:1.3:CRS84" } },
"features": [
{ "type": "Feature", "properties": { "name": "cuba camp" }, "geometry": { "type": "Point", "coordinates": [ 41.82697851753624, 9.609024271567115 ] } },
{ "type": "Feature", "properties": { "name": "aliye" }, "geometry": { "type": "Point", "coordinates": [ 41.826646211264482, 9.60272616846013 ] } },
{ "type": "Feature", "properties": { "name": "sebategna" }, "geometry": { "type": "Point", "coordinates": [ 41.834030795081205, 9.607440655512541 ] } },
{ "type": "Feature", "properties": { "name": "seido" }, "geometry": { "type": "Point", "coordinates": [ 41.838646159966629, 9.602981007276327 ] } },
{ "type": "Feature", "properties": { "name": "anbeta" }, "geometry": { "type": "Point", "coordinates": [ 41.84135999451928, 9.602043563543388 ] } },
{ "type": "Feature", "properties": { "name": "eshet grocery" }, "geometry": { "type": "Point", "coordinates": [ 41.841138457004782, 9.60968866000418 ] } },
{ "type": "Feature", "properties": { "name": "university" }, "geometry": { "type": "Point", "coordinates": [ 41.837658471881163, 9.615950229403998 ] } },
{ "type": "Feature", "properties": { "name": "toni" }, "geometry": { "type": "Point", "coordinates": [ 41.841498455465853, 9.616814826536073 ] } },
{ "type": "Feature", "properties": { "name": "gende tesfa" }, "geometry": { "type": "Point", "coordinates": [ 41.847132399886512, 9.617648108186147 ] } },
{ "type": "Feature", "properties": { "name": "bergele" }, "geometry": { "type": "Point", "coordinates": [ 41.834667715435373, 9.595827244800972 ] } },
{ "type": "Feature", "properties": { "name": "aboye church" }, "geometry": { "type": "Point", "coordinates": [ 41.837723086989534, 9.593943213526851 ] } },
{ "type": "Feature", "properties": { "name": "high school" }, "geometry": { "type": "Point", "coordinates": [ 41.858852227435108, 9.581956160684092 ] } },
{ "type": "Feature", "properties": { "name": "shell" }, "geometry": { "type": "Point", "coordinates": [ 41.859789146506841, 9.586361474590744 ] } },
{ "type": "Feature", "properties": { "name": "karamara" }, "geometry": { "type": "Point", "coordinates": [ 41.856683005938933, 9.586038359502075 ] } },
{ "type": "Feature", "properties": { "name": "gende kore" }, "geometry": { "type": "Point", "coordinates": [ 41.855686087123694, 9.58719429093563 ] } },
{ "type": "Feature", "properties": { "name": "dil chora" }, "geometry": { "type": "Point", "coordinates": [ 41.858944534732821, 9.587781356966468 ] } },
{ "type": "Feature", "properties": { "name": "dipo" }, "geometry": { "type": "Point", "coordinates": [ 41.852076871783296, 9.594857925670818 ] } },
{ "type": "Feature", "properties": { "name": "police memriya" }, "geometry": { "type": "Point", "coordinates": [ 41.849875342732929, 9.598514474182883 ] } },
{ "type": "Feature", "properties": { "name": "megala dildi" }, "geometry": { "type": "Point", "coordinates": [ 41.86342605403663, 9.591615464774163 ] } },
{ "type": "Feature", "properties": { "name": "kefira" }, "geometry": { "type": "Point", "coordinates": [ 41.865576814073258, 9.584734518729187 ] } },
{ "type": "Feature", "properties": { "name": "megala" }, "geometry": { "type": "Point", "coordinates": [ 41.865050662476321, 9.590186496723877 ] } },
{ "type": "Feature", "properties": { "name": "konel" }, "geometry": { "type": "Point", "coordinates": [ 41.865808384109073, 9.590333172558433 ] } },
{ "type": "Feature", "properties": { "name": "chat tera" }, "geometry": { "type": "Point", "coordinates": [ 41.868768338891549, 9.590031767337999 ] } },
{ "type": "Feature", "properties": { "name": "taiwan" }, "geometry": { "type": "Point", "coordinates": [ 41.868099110983167, 9.59462128395981 ] } },
{ "type": "Feature", "properties": { "name": "ruztera" }, "geometry": { "type": "Point", "coordinates": [ 41.868976030311394, 9.595950116042008 ] } },
{ "type": "Feature", "properties": { "name": "legehare" }, "geometry": { "type": "Point", "coordinates": [ 41.877422148051785, 9.592591619422787 ] } },
{ "type": "Feature", "properties": { "name": "sai hotel" }, "geometry": { "type": "Point", "coordinates": [ 41.876277537560192, 9.591945400809005 ] } },
{ "type": "Feature", "properties": { "name": "qutaba" }, "geometry": { "type": "Point", "coordinates": [ 41.875797539612108, 9.5960957411589 ] } },
{ "type": "Feature", "properties": { "name": "ashewa" }, "geometry": { "type": "Point", "coordinates": [ 41.87023140956024, 9.598612315324742 ] } },
{ "type": "Feature", "properties": { "name": "gende gebere" }, "geometry": { "type": "Point", "coordinates": [ 41.883403660943323, 9.594598529940436 ] } },
{ "type": "Feature", "properties": { "name": "christian mekabir" }, "geometry": { "type": "Point", "coordinates": [ 41.871477558079306, 9.607768300821421 ] } },
{ "type": "Feature", "properties": { "name": "gende gerada" }, "geometry": { "type": "Point", "coordinates": [ 41.874597544741874, 9.607495263086061 ] } },
{ "type": "Feature", "properties": { "name": "addis kela" }, "geometry": { "type": "Point", "coordinates": [ 41.875317541664003, 9.62214797680552 ] } },
{ "type": "Feature", "properties": { "name": "wahanibit" }, "geometry": { "type": "Point", "coordinates": [ 41.862154521010659, 9.617852340176549 ] } },
{ "type": "Feature", "properties": { "name": "orbit hotel" }, "geometry": { "type": "Point", "coordinates": [ 41.860419143813729, 9.60346338022482 ] } },
{ "type": "Feature", "properties": { "name": "finance" }, "geometry": { "type": "Point", "coordinates": [ 41.862071444442719, 9.601497478619414 ] } },
{ "type": "Feature", "properties": { "name": "saba dabo" }, "geometry": { "type": "Point", "coordinates": [ 41.865039124064083, 9.587581117504197 ] } },
{ "type": "Feature", "properties": { "name": "number one" }, "geometry": { "type": "Point", "coordinates": [ 41.867088346073231, 9.599083317635509 ] } },
{ "type": "Feature", "properties": { "name": "meskelegna" }, "geometry": { "type": "Point", "coordinates": [ 41.847343815093261, 9.607431554249459 ] } },
{ "type": "Feature", "properties": { "name": "industry zone" }, "geometry": { "type": "Point", "coordinates": [ 41.8053346, 9.6198301 ] } },
{ "type": "Feature", "properties": { "name": "melka jebdu" }, "geometry": { "type": "Point", "coordinates": [ 41.7808317, 9.6175188 ] } },
{ "type": "Feature", "properties": { "name": "green area" }, "geometry": { "type": "Point", "coordinates": [ 41.838547419829759, 9.610587794576787 ] } },
{ "type": "Feature", "properties": { "name": "sabian agip" }, "geometry": { "type": "Point", "coordinates": [ 41.845144590054652, 9.600726871149675 ] } },
{ "type": "Feature", "properties": { "name": "jemal" }, "geometry": { "type": "Point", "coordinates": [ 41.858404634198948, 9.588625173021764 ] } },
{ "type": "Feature", "properties": { "name": "legehar" }, "geometry": { "type": "Point", "coordinates": [ 41.861397080722107, 9.594501835144451 ] } },
{ "type": "Feature", "properties": { "name": "firdbet" }, "geometry": { "type": "Point", "coordinates": [ 41.865086447983614, 9.598038459561669 ] } },
{ "type": "Feature", "properties": { "name": "noc" }, "geometry": { "type": "Point", "coordinates": [ 41.876129290192182, 9.617168760772584 ] } },
{ "type": "Feature", "properties": { "name": "new high school" }, "geometry": { "type": "Point", "coordinates": [ 41.87143438667561, 9.618661358956368 ] } },
{ "type": "Feature", "properties": { "name": "palace" }, "geometry": { "type": "Point", "coordinates": [ 41.86147241547981, 9.592362332804747 ] } },
{ "type": "Feature", "properties": { "name": "airport" }, "geometry": { "type": "Point", "coordinates": [ 41.857758899328104, 9.611963299267094 ] } },
{ "type": "Feature", "properties": { "name": "continental" }, "geometry": { "type": "Point", "coordinates": [ 41.8620314, 9.5936133 ] } },
{ "type": "Feature", "properties": { "name": "bridge" }, "geometry": { "type": "Point", "coordinates": [ 41.8480281, 9.599582299999982 ] } },
{ "type": "Feature", "properties": { "name": "tsehay hotel" }, "geometry": { "type": "Point", "coordinates": [ 41.852262117733716, 9.591962417508574 ] } },
{ "type": "Feature", "properties": { "name": "goro hadid" }, "geometry": { "type": "Point", "coordinates": [ 41.837319487456462, 9.596682220262442 ] } },
{ "type": "Feature", "properties": { "name": "france hospital" }, "geometry": { "type": "Point", "coordinates": [ 41.855956424796851, 9.590119575109412 ] } },
{ "type": "Feature", "properties": { "name": "papa shemshara" }, "geometry": { "type": "Point", "coordinates": [ 41.832745091167247, 9.603316112522881 ] } },
{ "type": "Feature", "properties": { "name": "maremiya bet" }, "geometry": { "type": "Point", "coordinates": [ 41.862160700349627, 9.612957403085918 ] } },
{ "type": "Feature", "properties": { "name": "new tele" }, "geometry": { "type": "Point", "coordinates": [ 41.856536588102855, 9.60489826027702 ] } },
{ "type": "Feature", "properties": { "name": "gendetesta police station" }, "geometry": { "type": "Point", "coordinates": [ 41.845834590503827, 9.616161671559018 ] } },
{ "type": "Feature", "properties": { "name": "kelafo" }, "geometry": { "type": "Point", "coordinates": [ 41.867609498388191, 9.590211896017896 ] } },
{ "type": "Feature", "properties": { "name": "michael church" }, "geometry": { "type": "Point", "coordinates": [ 41.860916791015704, 9.590629157297876 ] } },
{ "type": "Feature", "properties": { "name": "jerba police" }, "geometry": { "type": "Point", "coordinates": [ 41.830737192769739, 9.594577563638202 ] } },
{ "type": "Feature", "properties": { "name": "awra godana" }, "geometry": { "type": "Point", "coordinates": [ 41.851750759872544, 9.59622222244877 ] } },
{ "type": "Feature", "properties": { "name": "solomon bekele" }, "geometry": { "type": "Point", "coordinates": [ 41.858273444702775, 9.590179228139441 ] } },
{ "type": "Feature", "properties": { "name": "world food" }, "geometry": { "type": "Point", "coordinates": [ 41.864940579314094, 9.601609877119531 ] } },
{ "type": "Feature", "properties": { "name": "sabian wiha limat" }, "geometry": { "type": "Point", "coordinates": [ 41.851355577169457, 9.596774049657981 ] } },
{ "type": "Feature", "properties": { "name": "megala chebtu" }, "geometry": { "type": "Point", "coordinates": [ 41.872951922117338, 9.595789516702155 ] } },
{ "type": "Feature", "properties": { "name": "medihalem school" }, "geometry": { "type": "Point", "coordinates": [ 41.864471877401201, 9.582576775097559 ] } },
{ "type": "Feature", "properties": { "name": "diro kela" }, "geometry": { "type": "Point", "coordinates": [ 41.872502475447085, 9.615744755947764 ] } },
{ "type": "Feature", "properties": { "name": "goro after hadid" }, "geometry": { "type": "Point", "coordinates": [ 41.837466006846455, 9.595630292605444 ] } },
{ "type": "Feature", "properties": { "name": "menehariya" }, "geometry": { "type": "Point", "coordinates": [ 41.861792715097494, 9.587114405310833 ] } },
{ "type": "Feature", "properties": { "name": "police meret" }, "geometry": { "type": "Point", "coordinates": [ 41.871718855686957, 9.604763904334892 ] } },
{ "type": "Feature", "properties": { "name": "betemengist" }, "geometry": { "type": "Point", "coordinates": [ 41.861527234225051, 9.591688462988074 ] } },
{ "type": "Feature", "properties": { "name": "kebri jole" }, "geometry": { "type": "Point", "coordinates": [ 41.869949794419263, 9.589629986860087 ] } },
{ "type": "Feature", "properties": { "name": "tsehay hotel" }, "geometry": { "type": "Point", "coordinates": [ 41.851894398554229, 9.591852016454354 ] } },
{ "type": "Feature", "properties": { "name": "sabian nedaj madeya" }, "geometry": { "type": "Point", "coordinates": [ 41.845049328344523, 9.601146906002276 ] } },
{ "type": "Feature", "properties": { "name": "medihaniyalem" }, "geometry": { "type": "Point", "coordinates": [ 41.862972276811746, 9.5826691164499 ] } },
{ "type": "Feature", "properties": { "name": "sabian tena tabiya" }, "geometry": { "type": "Point", "coordinates": [ 41.836541040387601, 9.611490439293201 ] } },
{ "type": "Feature", "properties": { "name": "mesgid bilal" }, "geometry": { "type": "Point", "coordinates": [ 41.877403796014725, 9.597658181808752 ] } },
{ "type": "Feature", "properties": { "name": "belayzewdie" }, "geometry": { "type": "Point", "coordinates": [ 41.858402949791568, 9.589084776351674 ] } },
{ "type": "Feature", "properties": { "name": "biratu hotel" }, "geometry": { "type": "Point", "coordinates": [ 41.864740080224941, 9.588894821178792 ] } },
{ "type": "Feature", "properties": { "name": "wedajo tej bet" }, "geometry": { "type": "Point", "coordinates": [ 41.866965766983533, 9.580704641544939 ] } },
{ "type": "Feature", "properties": { "name": "sholla hotel" }, "geometry": { "type": "Point", "coordinates": [ 41.853899260754098, 9.59189573440888 ] } },
{ "type": "Feature", "properties": { "name": "police station" }, "geometry": { "type": "Point", "coordinates": [ 41.850740527855713, 9.597729711837058 ] } },
{ "type": "Feature", "properties": { "name": "tiyit dipo" }, "geometry": { "type": "Point", "coordinates": [ 41.862862058679312, 9.572981130197974 ] } },
{ "type": "Feature", "properties": { "name": "tele maseltegna" }, "geometry": { "type": "Point", "coordinates": [ 41.835361338805022, 9.611858743599225 ] } },
{ "type": "Feature", "properties": { "name": "bono wuha" }, "geometry": { "type": "Point", "coordinates": [ 41.838131770383676, 9.593066834475898 ] } },
{ "type": "Feature", "properties": { "name": "gende jabir" }, "geometry": { "type": "Point", "coordinates": [ 41.869029967286444, 9.563318256752153 ] } },
{ "type": "Feature", "properties": { "name": "tele mazoriya" }, "geometry": { "type": "Point", "coordinates": [ 41.834311054760086, 9.612192962126954 ] } },
{ "type": "Feature", "properties": { "name": "amistegna" }, "geometry": { "type": "Point", "coordinates": [ 41.867719002005941, 9.58834842073116 ] } },
{ "type": "Feature", "properties": { "name": "jelaba" }, "geometry": { "type": "Point", "coordinates": [ 41.868596882827312, 9.6006089313201 ] } },
{ "type": "Feature", "properties": { "name": "juma mosque" }, "geometry": { "type": "Point", "coordinates": [ 41.868508615625203, 9.59004235953026 ] } },
{ "type": "Feature", "properties": { "name": "industry village" }, "geometry": { "type": "Point", "coordinates": [ 41.804433063173747, 9.616165655913235 ] } },
{ "type": "Feature", "properties": { "name": "dechatu" }, "geometry": { "type": "Point", "coordinates": [ 41.863645743754752, 9.58886118601459 ] } },
{ "type": "Feature", "properties": { "name": "christ school" }, "geometry": { "type": "Point", "coordinates": [ 41.86935766025352, 9.590168939895426 ] } },
{ "type": "Feature", "properties": { "name": "sami menafesha" }, "geometry": { "type": "Point", "coordinates": [ 41.854269686580231, 9.597529740293963 ] } },
{ "type": "Feature", "properties": { "name": "gende kore mosque" }, "geometry": { "type": "Point", "coordinates": [ 41.854035830574752, 9.58930844288121 ] } },
{ "type": "Feature", "properties": { "name": "goro police station" }, "geometry": { "type": "Point", "coordinates": [ 41.840878993283184, 9.594462856951832 ] } }
]
}
